{"type": "FeatureCollection", "features": [{"geometry": {"type": "Point", "coordinates": [-122.3437363, 47.607257]}, "type": "Feature", "properties": {"website": "http://www.seattleaquarium.org/", "title": "Seattle Aquarium", "longitude": -122.3437363, "phone": "206-386-4300", "state": "WA", "cost": "Adults: $17, Youth: $11, Children (under 3): Free", "address_geo": "1483 Alaskan Way, Seattle, WA 98101, USA", "address": "1483 Alaskan Way, Seattle, WA 98101", "latitude": 47.607257, "lat_lon": "47.6098959, -122.3462634"}}, {"geometry": {"type": "Point", "coordinates": [-122.3407369, 47.6086274]}, "type": "Feature", "properties": {"website": "http://www.pikeplacemarket.org/", "title": "Pike Place Market", "longitude": -122.3407369, "phone": "206-682-7453", "state": "WA", "cost": "Entry is free.", "address_geo": "1501 Pike Pl, Seattle, WA 98101, USA", "address": "1501 Pike Place, Seattle, WA 98101", "latitude": 47.6086274, "lat_lon": "47.608709, -122.341047"}}, {"geometry": {"type": "Point", "coordinates": [-122.4340769, 47.2459313]}, "type": "Feature", "properties": {"website": "http://www.museumofglass.org/", "title": "Museum of Glass", "longitude": -122.4340769, "phone": "253-284-4750", "state": "WA", "cost": "General Admission: $12", "address_geo": "1801 Dock St, Tacoma, WA 98402, USA", "address": "1801 Dock Street, Tacoma, WA 98402", "latitude": 47.2459313, "lat_lon": "47.245401, -122.433722"}}, {"geometry": {"type": "Point", "coordinates": [-122.3492774, 47.6205063]}, "type": "Feature", "properties": {"website": "http://www.spaceneedle.com/", "title": "Space Needle", "longitude": -122.3492774, "phone": "206-905-2100", "state": "WA", "cost": "Prices start at $11 for children and $18 for adults.", "address_geo": "400 Broad St, Seattle, WA 98109, USA", "address": "Space Needle, 400 Broad Street, Seattle, WA 98109", "latitude": 47.6205063, "lat_lon": "47.620492, -122.349237"}}, {"geometry": {"type": "Point", "coordinates": [-122.1232461, 46.7577568]}, "type": "Feature", "properties": {"website": "http://www.nps.gov/mora/index.htm", "title": "Mount Rainier National Park", "longitude": -122.1232461, "phone": "360-569-2211", "state": "WA", "cost": "Entry fee is $15 per vehicle", "address_geo": "55210 238th Ave E, Ashford, WA 98304, USA", "address": "Mount Rainier National Park, 55210 238th Avenue East, Ashford, WA 98304", "latitude": 46.7577568, "lat_lon": "46.8996733, -121.6973877"}}, {"geometry": {"type": "Point", "coordinates": [-124.04748, 44.6170195]}, "type": "Feature", "properties": {"website": "http://www.aquarium.org/", "title": "Oregon Coast Aquarium", "longitude": -124.04748, "phone": "541-867- FISH (3474)", "state": "OR", "cost": "Children: $9.95, Youth: $12.75, Adults: $15.45", "address_geo": "2820 SE Ferry Slip Rd, Newport, OR 97365, USA", "address": "2820 SE Ferry Slip Road, Newport, OR 97365", "latitude": 44.6170195, "lat_lon": "44.61708, -124.047382"}}, {"geometry": {"type": "Point", "coordinates": [-122.7130441, 45.508503]}, "type": "Feature", "properties": {"website": "http://www.oregonzoo.org/", "title": "Oregon Zoo", "longitude": -122.7130441, "phone": "503-226-1561", "state": "OR", "cost": "Children: $7.50, Adults: $10.50", "address_geo": "Kalahari Banquet Room, 4001 Southwest Canyon Road, Portland, OR 97221, USA", "address": "4001 SW Canyon Road, Portland, OR 97221-9704", "latitude": 45.508503, "lat_lon": "45.509017, -122.713079"}}, {"geometry": {"type": "Point", "coordinates": [-122.7084311, 45.51862]}, "type": "Feature", "properties": {"website": "http://www.japanesegarden.com/", "title": "Portland Japanese Garden", "longitude": -122.7084311, "phone": "503-223-1321", "state": "OR", "cost": "Youth: $6.75, Adults: $9.50", "address_geo": "611 SW Kingston Ave, Portland, OR 97205, USA", "address": "611 SW Kingston Avenue, Portland, OR 97205", "latitude": 45.51862, "lat_lon": "45.5191157, -122.7067812s"}}, {"geometry": {"type": "Point", "coordinates": [-117.9203217, 33.8126774]}, "type": "Feature", "properties": {"website": "http://www.disneyland.disney.go.com/", "title": "Disneyland, Anaheim", "longitude": -117.9203217, "phone": "714-999-4565", "state": "CA", "cost": "To visit both parks on the same day: Children, $91 and adults, $101.", "address_geo": "1313 Disneyland Dr, Anaheim, CA 92802, USA", "address": "1313 S. Disneyland Drive, Anaheim, CA 92802", "latitude": 33.8126774, "lat_lon": "33.8153989, -117.9241562"}}, {"geometry": {"type": "Point", "coordinates": [-118.3181546, 34.1326597]}, "type": "Feature", "properties": {"website": "http://www.hollywoodsign.org/", "title": "Hollywood Sign", "longitude": -118.3181546, "phone": "323-258-4338", "state": "CA", "cost": "Free", "address_geo": "Mount Lee Dr, Los Angeles, CA 90068, USA", "address": "Mt Lee Drive, Los Angeles, CA 90068", "latitude": 34.1326597, "lat_lon": "34.1326032, -118.3181997"}}, {"geometry": {"type": "Point", "coordinates": [-117.2219302, 32.7610915]}, "type": "Feature", "properties": {"website": "http://www.seaworld.com/", "title": "SeaWorld San Diego", "longitude": -117.2219302, "phone": "800-257-4268", "state": "CA", "cost": "Children: $59, Adults: $69", "address_geo": "500 Sea World Dr, San Diego, CA 92109, USA", "address": "500 SeaWorld Drive, San Diego, CA 92109", "latitude": 32.7610915, "lat_lon": "32.758371, -117.183222"}}, {"geometry": {"type": "Point", "coordinates": [-117.1491197, 32.7345893]}, "type": "Feature", "properties": {"website": "http://www.sandiegozoo.org/", "title": "San Diego Zoo", "longitude": -117.1491197, "phone": "619-231-1515", "state": "CA", "cost": "Children: $27, Adults, $37", "address_geo": "2920 Zoo Dr, San Diego, CA 92101, USA", "address": "2920 Zoo Drive, San Diego, CA 92101", "latitude": 32.7345893, "lat_lon": "32.7381587, -117.1487305"}}, {"geometry": {"type": "Point", "coordinates": [-122.3954057, 37.7978018]}, "type": "Feature", "properties": {"website": "http://www.alcatrazcruises.com/", "title": "Alcatraz Island", "longitude": -122.3954057, "phone": "415-981-ROCK (7625)", "state": "CA", "cost": "Children: $16, Adults: $26", "address_geo": "Pier 3, Hornblower Landing, The Embarcadero, San Francisco, CA 94111, USA", "address": "Pier 33, Hornblower Alcatraz Landing, San Francisco, California 94111", "latitude": 37.7978018, "lat_lon": "37.806732, -122.404528"}}, {"geometry": {"type": "Point", "coordinates": [-118.3529405, 34.1370068]}, "type": "Feature", "properties": {"website": "http://www.universalstudioshollywood.com/", "title": "Universal Studios", "longitude": -118.3529405, "phone": "1-800-UNIVERSAL", "state": "CA", "cost": "$129/day pass.", "address_geo": "1000 Universal Center Dr, Universal City, CA 91608, USA", "address": "1000 Universal Center Dr, San Fernando Valley, CA 91602", "latitude": 34.1370068, "lat_lon": "34.135572, -118.350885"}}, {"geometry": {"type": "Point", "coordinates": [-113.3002095, 43.6365096]}, "type": "Feature", "properties": {"website": "http://www.nps.gov/crmo/index.htm", "title": "Craters of the Moon National Monument", "longitude": -113.3002095, "phone": "208-527-1300", "state": "ID", "cost": "Entry fee is $8 per vehicle.", "address_geo": "US-26, United States", "address": "Arco, Highway 26, Arco, Idaho 83213", "latitude": 43.6365096, "lat_lon": "43.603472, -113.34132"}}, {"geometry": {"type": "Point", "coordinates": [-110.6424411, 44.4620852]}, "type": "Feature", "properties": {"website": "http://www.nps.gov/yell/index.htm", "title": "Yellowstone National Park", "longitude": -110.6424411, "phone": "307-344-7311", "state": "WY", "cost": "Entry Fee is $25 per vehicle", "address_geo": "Yellowstone National Park, WY 82190, USA", "address": "Yellowstone National Park, WY 82190", "latitude": 44.4620852, "lat_lon": "44.4620852, -110.6424411"}}, {"geometry": {"type": "Point", "coordinates": [-115.1482375, 36.1572084]}, "type": "Feature", "properties": {"website": "http://www.vegas.com/lounge/map.html", "title": "Las Vegas Strip", "longitude": -115.1482375, "phone": "702-383-8326", "state": "NV", "cost": "Free", "address_geo": "1147 S Las Vegas Blvd, Las Vegas, NV 89104, USA", "address": "1147 Las Vegas Boulevard South, Las Vegas, NV 89104-1305", "latitude": 36.1572084, "lat_lon": "36.1572784, -115.1482839"}}, {"geometry": {"type": "Point", "coordinates": [-119.8088645, 39.5259057]}, "type": "Feature", "properties": {"website": "http://www.automuseum.org/index.html", "title": "Reno National Automobile Museum", "longitude": -119.8088645, "phone": "775-333-9300", "state": "NV", "cost": "Children: $4, Adults: $10", "address_geo": "10 Lake St, Reno, NV 89501, USA", "address": "10 South Lake Street, Reno, NV 89501-1558", "latitude": 39.5259057, "lat_lon": "39.5253127, -119.8094191"}}, {"geometry": {"type": "Point", "coordinates": [-120.0323507, 39.0968493]}, "type": "Feature", "properties": {"website": "http://www.visitinglaketahoe.com/", "title": "Lake Tahoe", "longitude": -120.0323507, "phone": "775-831-0494", "state": "NV", "cost": "Free", "address_geo": "Lake Tahoe, United States", "address": "Lake Tahoe, Nevada", "latitude": 39.0968493, "lat_lon": "39.1272558, -120.0202964"}}, {"geometry": {"type": "Point", "coordinates": [-112.0727233, 33.4667324]}, "type": "Feature", "properties": {"website": "http://www.phxart.org/", "title": "Phoenix Art Museum", "longitude": -112.0727233, "phone": "602-257-1222", "state": "AZ", "cost": "Children: $4, Adults: $10", "address_geo": "1625 N Central Ave, Phoenix, AZ 85004, USA", "address": "1625 N. Central Avenue, Phoenix, AZ 85004", "latitude": 33.4667324, "lat_lon": "33.466978, -112.072569"}}, {"geometry": {"type": "Point", "coordinates": [-110.1808952, 37.0080386]}, "type": "Feature", "properties": {"website": "http://www.utah.com/monumentvalley/", "title": "Monument Valley", "longitude": -110.1808952, "phone": "800-574-4386", "state": "UT", "cost": "$5 per person", "address_geo": "Monument Valley Rd, Oljato-Monument Valley, UT 84536, USA", "address": "Monument Valley, Oljato-Monument Valley, San Juan, UT 84536", "latitude": 37.0080386, "lat_lon": "37.0105556, -110.2427778"}}, {"geometry": {"type": "Point", "coordinates": [-109.510324, 38.538146]}, "type": "Feature", "properties": {"website": "http://www.nps.gov/arch/index.htm", "title": "Arches National Park", "longitude": -109.510324, "phone": "435-719-2299", "state": "UT", "cost": "Entrance Fee is $5 per vehicle", "address_geo": "2282 Resource Blvd, Moab, UT 84532, USA", "address": "2282 Resource Blvd, Moab, UT 84532", "latitude": 38.538146, "lat_lon": "38.7250494, -109.595456"}}, {"geometry": {"type": "Point", "coordinates": [-111.892425, 40.7694074]}, "type": "Feature", "properties": {"website": "http://www.visittemplesquare.com/", "title": "Temple Square", "longitude": -111.892425, "phone": "801-240-4872", "state": "UT", "cost": "Free", "address_geo": "50 W S Temple, Salt Lake City, UT 84150, USA", "address": "50 W South Temple, Salt Lake City, UT 84150-0001", "latitude": 40.7694074, "lat_lon": "40.7705016, -111.8924364"}}, {"geometry": {"type": "Point", "coordinates": [-114.341497, 48.4214327]}, "type": "Feature", "properties": {"website": "http://www.nps.gov/glac/index.htm", "title": "Glacier National Park", "longitude": -114.341497, "phone": "406-888-7800", "state": "MT", "cost": "Entrance Fee is $25 per vehicle", "address_geo": "540 Wisconsin Ave, Whitefish, MT 59937, USA", "address": "540 Wisconsin AveWhitefish, MT 59937-2126", "latitude": 48.4214327, "lat_lon": "48.7596128, -113.7870225"}}, {"geometry": {"type": "Point", "coordinates": [-114.033032, 46.9185039]}, "type": "Feature", "properties": {"website": "http://www.rmef.org/", "title": "Rocky Mountain Elk Foundation and Wildlife Visitor Center", "longitude": -114.033032, "phone": "406-523-4545", "state": "MT", "cost": "Free", "address_geo": "5705 Grant Creek Rd, Missoula, MT 59808, USA", "address": "5705 Grant Creek Road, Missoula, MT 59808", "latitude": 46.9185039, "lat_lon": "46.9175647, -114.0318558"}}, {"geometry": {"type": "Point", "coordinates": [-112.5607657, 46.0123512]}, "type": "Feature", "properties": {"website": "http://www.mbmg.mtech.edu/museum.htm", "title": "Mineral Museum", "longitude": -112.5607657, "phone": "406-496-4414", "state": "MT", "cost": "Free", "address_geo": "1300 W Park St, Butte, MT 59701, USA", "address": "1300 West Park Street Butte, Butte, MT 59701", "latitude": 46.0123512, "lat_lon": "46.0123457, -112.557698"}}, {"geometry": {"type": "Point", "coordinates": [-110.748, 43.5209]}, "type": "Feature", "properties": {"website": "http://www.wildlifeart.org/", "title": "National Wildlife Art Museum Jackson", "longitude": -110.748, "phone": "307-733-5771", "state": "WY", "cost": "Children: $6, Adults: $12", "address_geo": "2820 Rungius Rd, Jackson, WY 83001, USA", "address": "2820 Rungius Rd, Jackson, WY 83001", "latitude": 43.5209, "lat_lon": "43.5209, -110.748"}}, {"geometry": {"type": "Point", "coordinates": [-110.7591782, 43.4793953]}, "type": "Feature", "properties": {"website": "http://www.nps.gov/grte/index.htm", "title": "Grand Teton National Park", "longitude": -110.7591782, "phone": "307-732-0629", "state": "WY", "cost": "Entrance Fee is $25", "address_geo": "25 S Willow St, Jackson, WY 83001, USA", "address": "25 S Willow, Jackson, WY 83001", "latitude": 43.4793953, "lat_lon": "43.8113221, -110.655022"}}, {"geometry": {"type": "Point", "coordinates": [-104.8176325, 41.1395177]}, "type": "Feature", "properties": {"website": "http://www.wyomuseum.state.wy.us/", "title": "Wyoming State Museum", "longitude": -104.8176325, "phone": "307-777-7022", "state": "WY", "cost": "Free", "address_geo": "2301 Central Ave, Cheyenne, WY 82002, USA", "address": "2301 Central Avenue, Cheyenne, WY 82001-3110", "latitude": 41.1395177, "lat_lon": "41.1393766, -104.8182118"}}, {"geometry": {"type": "Point", "coordinates": [-104.8697878, 38.8784456]}, "type": "Feature", "properties": {"website": "http://www.gardenofgods.com/home/index.cfm", "title": "Garden of the Gods Colorado Springs", "longitude": -104.8697878, "phone": "719-634-6666", "state": "CO", "cost": "Free", "address_geo": "1805 N 30th St, Colorado Springs, CO 80904, USA", "address": "1805 North 30th Street, Colorado Springs, CO 80904", "latitude": 38.8784456, "lat_lon": "38.878441, -104.870193"}}, {"geometry": {"type": "Point", "coordinates": [-108.9738123, 40.2429537]}, "type": "Feature", "properties": {"website": "http://www.nps.gov/dino/index.htm", "title": "Dinosaur National Monument", "longitude": -108.9738123, "phone": "970-374-3000", "state": "CO", "cost": "Free", "address_geo": "E. 40, 4545 US-40, Dinosaur, CO 81610, USA", "address": "4545 Highway 40, Dinosaur, CO 81610-9724", "latitude": 40.2429537, "lat_lon": "40.4936524, -108.8396886"}}, {"geometry": {"type": "Point", "coordinates": [-108.4618335, 37.2308729]}, "type": "Feature", "properties": {"website": "http://www.nps.gov/meve/index.htm", "title": "Mesa Verde National Park", "longitude": -108.4618335, "phone": "970-529-4465", "state": "CO", "cost": "Entrance Fee is $10-$15 depending on time of year.", "address_geo": "Mesa Verde National Park, Mesa Verde, CO, USA", "address": "Loop Rd, Mesa Verde, Mesa Verde National Park, CO 81330", "latitude": 37.2308729, "lat_lon": "37.2492714, -108.4513438"}}, {"geometry": {"type": "Point", "coordinates": [-104.5567138, 32.1478553]}, "type": "Feature", "properties": {"website": "http://www.nps.gov/cave/planyourvisit/slaughter_canyon_cave_tour.htm", "title": "Slaughter Canyon Cave", "longitude": -104.5567138, "phone": "877-444-6777", "state": "NM", "cost": "Children; $7.50, Adults: $15", "address_geo": "Carlsbad Caverns National Park, New Mexico 88220, USA", "address": "Carlsbad Caverns National Park, NM 88220-575", "latitude": 32.1478553, "lat_lon": "32.1300792, -104.5538744"}}, {"geometry": {"type": "Point", "coordinates": [-105.9260047, 32.9177119]}, "type": "Feature", "properties": {"website": "http://www.nmspacemuseum.org/index.php", "title": "New Mexico Museum of Space History", "longitude": -105.9260047, "phone": "575-437-2840", "state": "NM", "cost": "Children: $4, Adults: $6.", "address_geo": "State Rte 2001, Alamogordo, NM 88310, USA", "address": "Highway 2001, Alamogordo, NM 88310", "latitude": 32.9177119, "lat_lon": "32.908147, -105.9630587"}}]}